[
  {
    "lat": 27.7188423,
    "lon": 85.3095996,
    "name": "Sorhakhutte"
  },
  {
    "lat": 27.7159831,
    "lon": 85.2835588,
    "name": "Swayambu stop"
  },
  {
    "lat": 27.6879843,
    "lon": 85.3162249,
    "name": "Kupondol stop"
  },
  {
    "lat": 27.6732666,
    "lon": 85.3135375,
    "name": "Jawalakhel"
  },
  {
    "lat": 27.6845309,
    "lon": 85.3018585,
    "name": "Sanepa"
  },
  {
    "lat": 27.6849132,
    "lon": 85.2986117,
    "name": "Balkhu"
  },
  {
    "lat": 27.7335107,
    "lon": 85.3085025,
    "name": "To Besi sihara"
  },
  {
    "lat": 27.6787869,
    "lon": 85.2971844,
    "name": "TU Gate"
  },
  {
    "lat": 27.6747581,
    "lon": 85.2804077,
    "name": "Panga Dobato"
  },
  {
    "lat": 27.6766588,
    "lon": 85.2835112,
    "name": "Tinkune"
  },
  {
    "lat": 27.6747945,
    "lon": 85.2777568,
    "name": "Nagaon Dobato"
  },
  {
    "lat": 27.7282299,
    "lon": 85.3460335,
    "name": "Sukedhara"
  },
  {
    "lat": 27.7069661,
    "lon": 85.3226211,
    "name": "Putali Sadak"
  },
  {
    "lat": 27.6666354,
    "lon": 85.3083104,
    "name": "Ekantakuna"
  },
  {
    "lat": 27.6688752,
    "lon": 85.3062936,
    "name": "Nakhu Dobato"
  },
  {
    "lat": 27.7038843,
    "lon": 85.332886,
    "name": "maitidevi bus stop"
  },
  {
    "lat": 27.7074532,
    "lon": 85.2824928,
    "name": "Sitapaila Stop"
  },
  {
    "lat": 27.6922923,
    "lon": 85.3361926,
    "name": "Eyeplex Mall Bus Stop"
  },
  {
    "lat": 27.7349404,
    "lon": 85.3146154,
    "name": "Gongabu Chowk"
  },
  {
    "lat": 27.6703044,
    "lon": 85.3381309,
    "name": "kharibot bus stop"
  },
  {
    "lat": 27.7169187,
    "lon": 85.3303697,
    "name": "Tangal Bus stop"
  },
  {
    "lat": 27.7399704,
    "lon": 85.3372283,
    "name": "Narayan Gopal Chowk"
  },
  {
    "lat": 27.6761142,
    "lon": 85.2938967,
    "name": "Naya Bato"
  },
  {
    "lat": 27.6826476,
    "lon": 85.2985509,
    "name": "Kumari Club"
  },
  {
    "lat": 27.677087,
    "lon": 85.2819551,
    "name": "Naya Bazar"
  },
  {
    "lat": 27.745806,
    "lon": 85.327511,
    "name": "Dhapasi Micro Stop"
  },
  {
    "lat": 27.7171421,
    "lon": 85.3150735,
    "name": "Lainchowr Bus Station"
  },
  {
    "lat": 27.6811429,
    "lon": 85.3315778,
    "name": "tempo-micro last stop"
  },
  {
    "lat": 27.6982946,
    "lon": 85.2995431,
    "name": "Kalimati Bus Stop"
  },
  {
    "lat": 27.7197605,
    "lon": 85.2869099,
    "name": "ठुलो भर्यांङ"
  },
  {
    "lat": 27.6729035,
    "lon": 85.3340263,
    "name": "New Bus Park"
  },
  {
    "lat": 27.7362631,
    "lon": 85.347674,
    "name": "Mandikhatar Stop"
  },
  {
    "lat": 27.72416,
    "lon": 85.33113,
    "name": "Baluwatar Bus Stop"
  },
  {
    "lat": 27.7092826,
    "lon": 85.3166186,
    "name": "Kantipath"
  },
  {
    "lat": 27.6798724,
    "lon": 85.3493503,
    "name": "Koteshwar Bus Stop"
  },
  {
    "lat": 27.7421779,
    "lon": 85.3325764,
    "name": "Basundhara Bus Stop"
  },
  {
    "lat": 27.7235413,
    "lon": 85.294554,
    "name": "Dhungedhara"
  },
  {
    "lat": 27.6790415,
    "lon": 85.3497204,
    "name": "Koteshwar Bus Stop"
  },
  {
    "lat": 27.6993514,
    "lon": 85.32895,
    "name": "Nepal Yatayat Anamnagar"
  },
  {
    "lat": 27.7039253,
    "lon": 85.3328212,
    "name": "Maitidevi"
  },
  {
    "lat": 27.7005956,
    "lon": 85.3234849,
    "name": "Newplaza"
  },
  {
    "lat": 27.6923015,
    "lon": 85.3455249,
    "name": "तिनकुने"
  },
  {
    "lat": 27.7308707,
    "lon": 85.2939807,
    "name": "Kharibot Micro Station"
  },
  {
    "lat": 27.7045119,
    "lon": 85.2819731,
    "name": "Soltidobato"
  },
  {
    "lat": 27.6783042,
    "lon": 85.3389673,
    "name": "Sarus Beauty Parlour And Cosmetic Training Center"
  },
  {
    "lat": 27.7099805,
    "lon": 85.3260604,
    "name": "Kamalpokhari Bus Stop"
  },
  {
    "lat": 27.6810897,
    "lon": 85.3176495,
    "name": "Krishnagalli Bus Stop"
  },
  {
    "lat": 27.7170154,
    "lon": 85.3466126,
    "name": "Chabhahil Chowk"
  },
  {
    "lat": 27.731947,
    "lon": 85.3442753,
    "name": "Dhumbaharai chock"
  },
  {
    "lat": 27.6899702,
    "lon": 85.3357427,
    "name": "Baneshwar Bus Station"
  },
  {
    "lat": 27.7260665,
    "lon": 85.3049731,
    "name": "Balaju Chowk Bus Stop"
  },
  {
    "lat": 27.6929997,
    "lon": 85.2807811,
    "name": "Kalanki Long Distance Bus-stop"
  },
  {
    "lat": 27.7087535,
    "lon": 85.331293,
    "name": "Mahanagar and Sajha Yatayat;Local Bus stand"
  },
  {
    "lat": 27.7169528,
    "lon": 85.3048394,
    "name": "Greenline Bus Stop"
  },
  {
    "lat": 27.7407558,
    "lon": 85.3269269,
    "name": "Shahenshah Micro Bus Stop"
  },
  {
    "lat": 27.7007581,
    "lon": 85.3233339,
    "name": "New Plaza Stop"
  },
  {
    "lat": 27.7351123,
    "lon": 85.3313234,
    "name": "Teaching Hospital"
  },
  {
    "lat": 27.684259,
    "lon": 85.297446,
    "name": "Balkhu"
  },
  {
    "lat": 27.6879843,
    "lon": 85.3162249,
    "name": "Kupondole bus stop"
  },
  {
    "lat": 27.6947007,
    "lon": 85.311271,
    "name": "12 to Kirtipur"
  },
  {
    "lat": 27.7197605,
    "lon": 85.2869099,
    "name": "Thulo Bharyang"
  },
  {
    "lat": 27.7092826,
    "lon": 85.3166186,
    "name": "bus to Boudanath"
  },
  {
    "lat": 27.6798724,
    "lon": 85.3493503,
    "name": "Koteshwar Bus Stop"
  },
  {
    "lat": 27.7221719,
    "lon": 85.2769086,
    "name": "Gairigaon Bus Station"
  },
  {
    "lat": 27.7421779,
    "lon": 85.3325764,
    "name": "Basundhara Bus Stop"
  },
  {
    "lat": 27.7235413,
    "lon": 85.294554,
    "name": "Yerahiti"
  },
  {
    "lat": 27.6790415,
    "lon": 85.3497204,
    "name": "Koteshwar Bus Stop"
  },
  {
    "lat": 27.6993514,
    "lon": 85.32895,
    "name": "Anamnagar 2nd point"
  },
  {
    "lat": 27.6923015,
    "lon": 85.3455249,
    "name": "tinkune"
  },
  {
    "lat": 27.747042,
    "lon": 85.3242737,
    "name": "Greenland Micro Stand"
  },
  {
    "lat": 27.6703694,
    "lon": 85.2905385,
    "name": "Chobhar Gate"
  },
  {
    "lat": 27.7129607,
    "lon": 85.2897532,
    "name": "Kimdol chowk"
  },
  {
    "lat": 27.6734413,
    "lon": 85.342163,
    "name": "Balkumari, koteshwor bus stop"
  },
  {
    "lat": 27.6708982,
    "lon": 85.33973,
    "name": "Balkumari Bus Stop"
  },
  {
    "lat": 27.6783042,
    "lon": 85.3389673,
    "name": "Micro bus stop"
  },
  {
    "lat": 27.7366406,
    "lon": 85.3019049,
    "name": "Lekhnath Sadak"
  },
  {
    "lat": 27.7276946,
    "lon": 85.3171184,
    "name": "imadoll"
  },
  {
    "lat": 27.6578462,
    "lon": 85.3225256,
    "name": "Chapagaun dobato"
  },
  {
    "lat": 27.6868986,
    "lon": 85.2512353,
    "name": "Satungal Chowk"
  },
  {
    "lat": 27.6761959,
    "lon": 85.3158001,
    "name": "Pulchowk Bus Stop"
  },
  {
    "lat": 27.6827881,
    "lon": 85.3021862,
    "name": "Jhamsikhel"
  },
  {
    "lat": 27.7192324,
    "lon": 85.318208,
    "name": "Lazimpat Bus Stop"
  },
  {
    "lat": 27.693971,
    "lon": 85.3193479,
    "name": "Maitighar Bus Stop"
  },
  {
    "lat": 27.6900842,
    "lon": 85.3175552,
    "name": "Thapathali bus stop"
  },
  {
    "lat": 27.6810897,
    "lon": 85.3176495,
    "name": "Krishnagalli Bus Stop"
  },
  {
    "lat": 27.6807853,
    "lon": 85.317403,
    "name": "Krishna galli bus stop"
  },
  {
    "lat": 27.6883306,
    "lon": 85.3348522,
    "name": "New Baneshwar bus stop"
  },
  {
    "lat": 27.7349479,
    "lon": 85.34229,
    "name": "Chappal Karkhana Bus Stop"
  },
  {
    "lat": 27.7087545,
    "lon": 85.3146285,
    "name": "Jamal Chowk"
  },
  {
    "lat": 27.7069046,
    "lon": 85.3447142,
    "name": "Gausala bus stop गौशाला बस स्टप८६६७"
  },
  {
    "lat": 27.7335948,
    "lon": 85.3476608,
    "name": "Ramcha chowk"
  },
  {
    "lat": 27.7213881,
    "lon": 85.2799852,
    "name": "Milan Chowk"
  },
  {
    "lat": 27.7170154,
    "lon": 85.3466126,
    "name": "Chabahil"
  },
  {
    "lat": 27.6732928,
    "lon": 85.342101,
    "name": "Balkumari Pul Bus stop बालकुमारी बस स्टप६६७"
  },
  {
    "lat": 27.6739274,
    "lon": 85.3141864,
    "name": "sajha bus stop"
  },
  {
    "lat": 27.7072377,
    "lon": 85.2825515,
    "name": "Sitapaila"
  },
  {
    "lat": 27.6968249,
    "lon": 85.3058547,
    "name": "Teku Bus Stop"
  },
  {
    "lat": 27.7064893,
    "lon": 85.314516,
    "name": "Ratna Park"
  },
  {
    "lat": 27.6929997,
    "lon": 85.2807811,
    "name": "Late Bus or Minis to Pokhara, etc."
  },
  {
    "lat": 27.7185759,
    "lon": 85.3082205,
    "name": "Pokhara Tourist Bus"
  },
  {
    "lat": 27.6990751,
    "lon": 85.2814445,
    "name": "Syuchatar"
  },
  {
    "lat": 27.7002299,
    "lon": 85.2817551,
    "name": "Bafal"
  },
  {
    "lat": 27.6990324,
    "lon": 85.2814676,
    "name": "Syuchatar"
  },
  {
    "lat": 27.7440965,
    "lon": 85.3003106,
    "name": "Sesmati Bus Stop"
  },
  {
    "lat": 27.7191973,
    "lon": 85.3125262,
    "name": "Micro bus to Banyitar"
  },
  {
    "lat": 27.7178762,
    "lon": 85.3067864,
    "name": "Tourist Bus Pokhara"
  },
  {
    "lat": 27.6621751,
    "lon": 85.3171035,
    "name": "Mahalaxmisthan bus stop"
  },
  {
    "lat": 27.6893207,
    "lon": 85.2843216,
    "name": "Khasi Bazar Bus Stop"
  },
  {
    "lat": 27.7449232,
    "lon": 85.307553,
    "name": "शुभकामना चोक Shubhakamana Chowk"
  },
  {
    "lat": 27.7286529,
    "lon": 85.3249144,
    "name": "Bus Stop"
  },
  {
    "lat": 27.7033527,
    "lon": 85.3139181,
    "name": "Tempu per Pashupathinat"
  },
  {
    "lat": 27.7260707,
    "lon": 85.3031511,
    "name": "Waiting area night bus"
  },
  {
    "lat": 27.6849089,
    "lon": 85.2965394,
    "name": "Balkhu"
  }
]
